"loopIteration","time","axisP[0]","axisP[1]","axisP[2]","axisI[0]","axisI[1]","axisI[2]","axisD[0]","axisD[1]","axisF[0]","axisF[1]","axisF[2]","rcCommand[0]","rcCommand[1]","rcCommand[2]","rcCommand[3]","setpoint[0]","setpoint[1]","setpoint[2]","setpoint[3]","vbatLatest","amperageLatest","rssi","gyroADC[0]","gyroADC[1]","gyroADC[2]","accSmooth[0]","accSmooth[1]","accSmooth[2]","motor[0]","motor[1]","motor[2]","motor[3]","flightModeFlags","stateFlags","failsafePhase","rxSignalReceived","rxFlightChannelsValid","heading[0]","heading[1]","heading[2]","axisSum[0]","axisSum[1]","axisSum[2]","rcCommands[0]","rcCommands[1]","rcCommands[2]","rcCommands[3]","axisError[0]","axisError[1]","axisError[2]"
0,22700985,-21,-56,47,0,0,0,-3,30,0,0,0,0,-4,54,1000,4,-77,23,0,1248,0,99,19,-39,-19,-656,-74,1977,247,163,157,250,"","","","","",-0.03741298435501772,0.32017504358590404,4.3964847080731655,-24,-26,47,4,-77,23,0,15,38,-42,"",""
8,22702110,-21,-53,48,0,0,0,-1,34,0,0,0,0,-5,54,1000,4,-78,23,0,1248,0,99,20,-41,-20,-660,-70,1979,256,157,157,242,3,8,0,1,1,-0.036247385454259,0.32053723577910975,4.396867575613606,-22,-19,48,4,-78,23,0,16,37,-43,"",""
16,22703185,-22,-50,46,0,0,0,0,35,0,0,0,0,-6,54,1000,4,-78,24,0,1248,0,99,20,-44,-18,-665,-63,1980,261,157,157,231,3,8,0,1,1,-0.034582469131144176,0.32109428477740526,4.397194665059491,-22,-15,46,4,-78,24,0,16,34,-42,"",""
24,22704242,-23,-48,43,0,0,0,-2,33,0,0,0,0,-7,55,1000,4,-78,24,0,1248,0,99,21,-46,-14,-668,-56,1980,260,157,157,219,3,8,0,1,1,-0.03276846078157787,0.32149899690549966,4.397440430541781,-25,-15,43,4,-78,24,0,17,32,-38,"",""
32,22705295,-23,-44,39,0,0,0,-3,31,0,0,0,0,-7,56,1000,4,-78,24,0,1248,0,99,21,-48,-10,-668,-50,1981,259,161,157,205,3,8,0,1,1,-0.030989233327619967,0.3215211163315275,4.397609407861139,-26,-13,39,4,-78,24,0,17,30,-34,"",""
40,22706377,-24,-41,36,0,0,0,-4,29,0,0,0,0,-8,57,1000,4,-78,25,0,1248,0,99,22,-50,-7,-666,-46,1981,259,168,157,194,3,8,0,1,1,-0.029371303681227267,0.32118879705592884,4.397724143169372,-28,-12,36,4,-78,25,0,18,28,-32,"",""
48,22707429,-27,-38,35,0,0,0,-5,28,0,0,0,0,-8,59,1000,3,-78,26,0,1248,0,99,23,-51,-6,-664,-46,1981,267,173,157,182,3,8,0,1,1,-0.02814994101635666,0.32069324873648475,4.397816412535639,-32,-10,35,3,-78,26,0,20,27,-32,"",""
56,22708495,-29,-38,36,0,0,0,-8,25,0,0,0,0,-8,60,1000,3,-78,26,0,1248,0,99,25,-52,-6,-662,-48,1980,274,186,157,179,3,8,0,1,1,-0.027276431989012695,0.32008122484731105,4.397908800064683,-37,-13,36,3,-78,26,0,22,26,-32,"",""
64,22709615,-33,-38,38,0,0,0,-12,19,0,0,0,0,-8,60,1000,3,-78,26,0,1248,0,99,28,-51,-8,-663,-49,1979,280,209,157,181,3,8,0,1,1,-0.026546709282637963,0.3195380947508094,4.398047341944843,-45,-19,38,3,-78,26,0,25,27,-34,"",""
72,22710646,-35,-39,40,0,0,0,-17,10,0,0,0,0,-8,61,1000,3,-78,27,0,1248,40,99,29,-51,-9,-665,-49,1979,280,234,157,188,3,8,0,1,1,-0.025938094841269514,0.3191670027423158,4.398194130890091,-52,-29,40,3,-78,27,0,26,27,-36,"",""
80,22711743,-35,-39,41,0,0,0,-18,4,0,0,0,0,-8,62,1000,2,-77,27,0,1248,40,99,29,-50,-10,-670,-46,1980,274,247,157,200,3,8,0,1,1,-0.025235632215433432,0.3189393828734451,4.398372489675331,-53,-35,41,2,-77,27,0,27,27,-37,"",""
88,22712809,-33,-39,42,0,0,0,-14,0,0,0,0,0,-9,62,1000,2,-77,27,0,1248,40,99,28,-50,-11,-675,-42,1981,252,244,157,224,3,8,0,1,1,-0.02447407951728175,0.318874546090671,4.398567494448408,-47,-39,42,2,-77,27,0,26,27,-38,"",""
96,22713882,-30,-38,42,0,0,0,-4,-2,0,0,0,0,-9,62,1000,2,-77,27,0,1248,40,99,25,-51,-11,-677,-38,1980,228,220,157,248,3,8,0,1,1,-0.023687973159361813,0.318808887508169,4.3987652686580745,-34,-40,42,2,-77,27,0,23,26,-38,"",""
104,22714935,-27,-36,43,0,0,0,6,0,0,0,0,0,-9,62,1000,2,-77,27,0,1248,40,99,23,-52,-11,-678,-36,1978,212,185,157,267,3,8,0,1,1,-0.022955436523239652,0.3187392759659633,4.398960059360196,-21,-36,43,2,-77,27,0,21,25,-38,"",""
112,22715987,-27,-34,45,0,0,0,14,5,0,0,0,0,-9,62,1000,2,-77,27,0,1248,40,99,22,-53,-13,-678,-36,1976,212,157,157,275,3,8,0,1,1,-0.022326793527902924,0.31861887806290656,4.3991930213897135,-13,-29,45,2,-77,27,0,20,24,-40,"",""
120,22717039,-27,-35,48,0,0,0,15,7,0,0,0,0,-9,62,1000,2,-77,27,0,1248,40,99,23,-53,-16,-676,-36,1974,222,157,157,280,3,8,0,1,1,-0.02175736434806128,0.31841354267796046,4.399484044432733,-12,-28,48,2,-77,27,0,21,24,-43,"",""
128,22718136,-29,-35,52,0,0,0,10,6,0,0,0,0,-10,62,1000,2,-76,27,0,1248,40,99,24,-52,-19,-675,-35,1971,237,157,157,277,3,8,0,1,1,-0.021193918917127658,0.31815299948814296,4.3998488315260404,-19,-29,52,2,-76,27,0,22,24,-46,"",""
136,22719193,-30,-36,50,0,0,0,3,2,0,0,0,0,-10,62,1000,2,-76,27,0,1248,40,99,25,-52,-18,-676,-34,1970,243,178,157,265,3,8,0,1,1,-0.020634956999431256,0.31793579102562736,4.400181654597175,-27,-34,50,2,-76,27,0,23,24,-45,"",""
144,22720265,-32,-36,43,0,0,0,-3,-1,0,0,0,0,-10,62,1000,2,-76,27,0,1248,40,99,26,-51,-11,-677,-31,1968,237,215,157,243,3,8,0,1,1,-0.019973335320469843,0.3177395864396174,4.40038322863868,-35,-37,43,2,-76,27,0,24,25,-38,"",""
152,22721302,-31,-36,34,0,0,0,-6,-3,0,0,0,0,-10,62,1000,2,-76,27,0,1248,40,99,25,-51,-3,-677,-27,1968,218,240,157,226,3,8,0,1,1,-0.019239707132516878,0.31754898532990045,4.400427922721756,-37,-39,34,2,-76,27,0,23,25,-30,"",""
160,22722393,-29,-33,27,0,0,0,-3,-2,0,0,0,0,-11,62,1000,2,-76,27,0,1248,40,99,24,-53,3,-675,-22,1967,206,237,157,213,3,8,0,1,1,-0.01839410531312766,0.31721716614627826,4.400356028709253,-32,-35,27,2,-76,27,0,22,23,-24,"",""
168,22723449,-28,-31,23,0,0,0,1,4,0,0,0,0,-13,62,1000,2,-77,27,0,1248,40,99,22,-56,7,-672,-19,1965,202,214,157,202,3,8,0,1,1,-0.01756125448024295,0.3168007923998356,4.400209531750868,-27,-27,23,2,-77,27,0,20,21,-20,"",""
176,22724504,-29,-29,23,0,0,0,6,12,0,0,0,0,-14,63,1000,1,-77,27,0,1248,40,99,23,-57,7,-668,-18,1964,214,189,157,189,3,8,0,1,1,-0.016742196959629932,0.3162858874641459,4.40006338607427,-23,-17,23,1,-77,27,0,22,20,-20,"",""
184,22725558,-32,-29,25,0,0,0,4,16,0,0,0,0,-15,63,1000,1,-78,27,0,1248,40,99,25,-58,4,-664,-20,1963,234,185,157,179,3,8,0,1,1,-0.015997640845229637,0.3156820837154453,4.399974219832704,-28,-13,25,1,-78,27,0,24,20,-23,"",""
192,22726651,-35,-30,30,0,0,0,-2,15,0,0,0,0,-16,63,1000,1,-78,27,0,1248,40,99,28,-57,1,-659,-24,1963,258,203,157,172,3,8,0,1,1,-0.015321464975393329,0.31497087750390634,4.399940115967932,-37,-15,30,1,-78,27,0,27,21,-26,"",""
200,22727763,-38,-33,34,0,0,0,-11,8,0,0,0,0,-17,63,1000,1,-78,28,0,1248,40,99,30,-56,-3,-656,-29,1963,272,233,157,174,3,8,0,1,1,-0.01475366407211911,0.3142185330536083,4.399984876223363,-49,-25,34,1,-78,28,0,29,22,-31,"",""
208,22728828,-39,-33,37,0,0,0,-17,1,0,0,0,0,-18,63,1000,0,-78,28,0,1248,40,99,30,-55,-6,-653,-32,1964,277,254,157,181,3,8,0,1,1,-0.014304845012467782,0.3134861306820096,4.400085146299891,-56,-32,37,0,-78,28,0,30,23,-34,"",""
216,22729902,-39,-33,39,0,0,0,-16,-3,0,0,0,0,-18,63,1000,0,-78,28,0,1248,40,99,30,-55,-7,-652,-33,1966,265,258,157,198,3,8,0,1,1,-0.013889093182687459,0.31273412493740055,4.40020548520912,-55,-36,39,0,-78,28,0,30,23,-35,"",""
224,22730958,-37,-33,39,0,0,0,-9,-5,0,0,0,0,-19,63,1000,0,-78,28,0,1251,60,99,28,-55,-7,-650,-31,1968,248,244,157,215,3,8,0,1,1,-0.013492228244806666,0.3119733584321437,4.400324759800172,-46,-38,39,0,-78,28,0,28,23,-35,"",""
232,22732020,-34,-32,37,0,0,0,0,-3,0,0,0,0,-19,63,1000,0,-78,28,0,1251,60,99,26,-56,-6,-647,-28,1970,227,221,157,230,3,8,0,1,1,-0.013081408817111508,0.31115035162184235,4.400426492200389,-34,-35,37,0,-78,28,0,26,22,-34,"",""
240,22733071,-32,-30,35,0,0,0,8,0,0,0,0,0,-19,63,1000,0,-78,28,0,1251,60,99,24,-57,-4,-642,-27,1972,214,195,157,236,3,8,0,1,1,-0.012694321260036648,0.31025559268746555,4.4004888186856155,-24,-30,35,0,-78,28,0,24,21,-32,"",""
248,22734156,-31,-30,34,0,0,0,13,3,0,0,0,0,-19,63,1000,0,-78,28,0,1251,60,99,24,-57,-3,-636,-29,1975,208,176,157,239,3,8,0,1,1,-0.012331299414489391,0.30925011563882865,4.400532194725843,-18,-27,34,0,-78,28,0,24,21,-31,"",""
256,22735204,-32,-30,36,0,0,0,13,4,0,0,0,0,-19,63,1000,0,-77,28,0,1251,60,99,24,-57,-5,-628,-31,1977,215,172,157,239,3,8,0,1,1,-0.012034122272750566,0.3081858160754748,4.4006112410093525,-19,-26,36,0,-77,28,0,24,20,-33,"",""
264,22736304,-34,-32,38,0,0,0,9,2,0,0,0,0,-19,63,1000,0,-77,28,0,1251,60,99,25,-55,-7,-621,-35,1979,222,188,157,239,3,8,0,1,1,-0.011776527053535034,0.3070349248109469,4.400732961868956,-25,-30,38,0,-77,28,0,25,22,-35,"",""
272,22737356,-36,-33,38,0,0,0,1,-2,0,0,0,0,-19,63,1000,0,-77,28,0,1251,60,99,26,-54,-7,-616,-38,1982,227,218,157,234,3,8,0,1,1,-0.01156611243901303,0.3059027679354115,4.400847626721076,-35,-35,38,0,-77,28,0,26,23,-35,"",""
280,22738430,-37,-36,35,0,0,0,-4,-8,0,0,0,0,-19,63,1000,0,-77,28,0,1251,60,99,28,-52,-4,-614,-41,1985,220,255,157,230,3,8,0,1,1,-0.011335662227506456,0.3047848261160903,4.400904716125559,-41,-44,35,0,-77,28,0,28,25,-32,"",""
288,22739488,-39,-36,31,0,0,0,-8,-13,0,0,0,0,-19,63,1000,-1,-76,28,0,1251,60,99,28,-51,0,-613,-42,1988,211,284,157,223,3,8,0,1,1,-0.01110275904570916,0.3037097702235038,4.40088305946661,-47,-49,31,-1,-76,28,0,29,25,-28,"",""
296,22740539,-38,-35,27,0,0,0,-9,-14,0,0,0,0,-19,63,1000,-1,-76,28,0,1251,60,99,28,-52,3,-612,-42,1991,205,292,157,215,3,8,0,1,1,-0.010854960564958237,0.3026319765064855,4.4008036213644335,-47,-49,27,-1,-76,28,0,29,24,-25,"",""
304,22741585,-38,-32,25,0,0,0,-6,-9,0,0,0,0,-19,63,1000,-1,-76,28,0,1251,60,99,27,-53,5,-609,-40,1994,211,273,157,202,3,8,0,1,1,-0.010588749164414718,0.30152517754449276,4.4006871146081075,-44,-41,25,-1,-76,28,0,28,23,-23,"",""
312,22742654,-36,-31,26,0,0,0,-1,0,0,0,0,0,-19,63,1000,-1,-75,28,0,1251,60,99,26,-54,4,-605,-38,1996,220,238,157,196,3,8,0,1,1,-0.01030957021969258,0.3003566794882161,4.400588670435392,-37,-31,26,-1,-75,28,0,27,21,-24,"",""
320,22743702,-36,-30,29,0,0,0,3,6,0,0,0,0,-19,63,1000,-2,-75,28,0,1251,60,99,25,-54,1,-598,-37,1998,230,208,157,199,3,8,0,1,1,-0.010063264545246472,0.29915216302435615,4.400549889992566,-33,-24,29,-2,-75,28,0,27,21,-27,"",""
328,22744752,-38,-32,33,0,0,0,5,6,0,0,0,0,-19,63,1000,-2,-75,28,0,1251,60,99,27,-53,-3,-591,-37,1999,235,203,157,209,3,8,0,1,1,-0.009803321481037405,0.297915092172268,4.400587876845526,-33,-26,33,-2,-75,28,0,29,22,-31,"",""
336,22745809,-41,-33,37,0,0,0,0,0,0,0,0,0,-19,63,1000,-2,-74,28,0,1251,60,99,29,-51,-5,-581,-37,2001,243,226,157,213,3,8,0,1,1,-0.009516407756392616,0.29662583374711415,4.400664991024194,-41,-33,37,-2,-74,28,0,31,23,-33,"",""
344,22746914,-43,-36,37,0,0,0,-7,-7,0,0,0,0,-19,63,1000,-2,-74,28,0,1251,60,99,31,-49,-6,-571,-37,2002,244,263,157,215,3,8,0,1,1,-0.00917678186342789,0.29525886994055855,4.4007664354814295,-50,-43,37,-2,-74,28,0,33,25,-34,"",""
352,22748039,-42,-36,36,0,0,0,-12,-13,0,0,0,0,-19,63,1000,-2,-73,28,0,1251,60,99,30,-49,-5,-562,-37,2002,238,286,157,217,3,8,0,1,1,-0.008843407315678765,0.2938205620098447,4.400849224267396,-54,-49,36,-2,-73,28,0,32,24,-33,"",""
360,22749089,-40,-37,34,0,0,0,-8,-14,0,0,0,0,-19,63,1000,-2,-73,28,0,1251,60,99,28,-48,-3,-553,-36,2002,217,284,157,227,3,8,0,1,1,-0.00856301981421408,0.29241222718150006,4.400888004026746,-48,-51,34,-2,-73,28,0,30,25,-31,"",""
368,22750159,-39,-36,30,0,0,0,0,-12,0,0,0,0,-19,63,1000,-2,-73,28,0,1251,60,99,27,-48,0,-545,-33,2002,199,267,157,234,3,8,0,1,1,-0.00824359039485319,0.2909485168435439,4.400870705189265,-39,-48,30,-2,-73,28,0,29,25,-28,"",""
376,22751208,-38,-36,28,0,0,0,5,-8,0,0,0,0,-19,63,1000,-2,-73,27,0,1245,0,99,27,-48,2,-538,-29,2001,188,252,157,234,3,8,0,1,1,-0.007883076310326139,0.28947848277038096,4.400817379810575,-33,-44,28,-2,-73,27,0,29,25,-25,"",""
384,22752269,-39,-36,26,0,0,0,7,-4,0,0,0,0,-19,62,1000,-2,-72,27,0,1245,0,99,27,-48,4,-530,-27,2000,190,244,157,226,3,8,0,1,1,-0.007489836712496873,0.2879661640503137,4.400725894001154,-32,-40,26,-2,-72,27,0,29,24,-23,"",""
392,22753320,-39,-36,26,0,0,0,6,-3,0,0,0,0,-19,62,1000,-2,-72,27,0,1245,0,99,27,-48,4,-521,-25,1999,194,244,157,222,3,8,0,1,1,-0.0070865250903111585,0.28642169429558617,4.400636203897028,-33,-39,26,-2,-72,27,0,29,24,-23,"",""
400,22754412,-40,-36,28,0,0,0,4,-2,0,0,0,0,-19,62,1000,-3,-72,27,0,1245,0,99,27,-47,2,-512,-25,1998,206,244,157,218,3,8,0,1,1,-0.0066807523291873986,0.2848236386582164,4.400583106858758,-36,-38,28,-3,-72,27,0,30,25,-25,"",""
408,22755467,-40,-36,32,0,0,0,1,-2,0,0,0,0,-19,62,1000,-3,-72,27,0,1245,0,99,27,-47,-2,-503,-25,1996,217,244,157,221,3,8,0,1,1,-0.006319720745568232,0.2832215171070073,4.400608224632112,-39,-38,32,-3,-72,27,0,30,25,-29,"",""
416,22756522,-40,-37,36,0,0,0,0,-3,0,0,0,0,-19,62,1000,-3,-71,27,0,1245,0,99,27,-46,-6,-495,-25,1994,226,241,157,229,3,8,0,1,1,-0.005984605544752467,0.28161389079333027,4.400710045888021,-40,-40,36,-3,-71,27,0,30,25,-33,"",""
424,22757573,-39,-38,38,0,0,0,0,-5,0,0,0,0,-19,62,1000,-3,-71,27,0,1245,0,99,27,-45,-7,-487,-22,1992,224,244,157,237,3,8,0,1,1,-0.005631519977138546,0.2800049883216945,4.400832057525221,-39,-43,38,-3,-71,27,0,30,26,-34,"",""
432,22758685,-39,-38,36,0,0,0,0,-7,0,0,0,0,-19,62,1000,-4,-71,27,0,1245,0,99,26,-45,-6,-479,-18,1991,216,249,157,239,3,8,0,1,1,-0.005232526204417414,0.2783249423456794,4.400943272492734,-39,-45,36,-4,-71,27,0,30,26,-33,"",""
440,22759737,-38,-38,32,0,0,0,2,-7,0,0,0,0,-19,62,1000,-4,-71,27,0,1245,0,99,25,-45,-1,-473,-13,1990,201,253,157,236,3,8,0,1,1,-0.004810264756218824,0.27668669712419425,4.400955202644487,-36,-45,32,-4,-71,27,0,29,26,-28,"",""
448,22760785,-38,-36,26,0,0,0,4,-5,0,0,0,0,-19,62,1000,-4,-70,27,0,1245,0,99,25,-45,4,-465,-9,1988,192,252,157,224,3,8,0,1,1,-0.004334841053076665,0.27503163855341217,4.400873990910314,-34,-41,26,-4,-70,27,0,29,25,-23,"",""
456,22761840,-37,-36,22,0,0,0,5,-1,0,0,0,0,-19,62,1000,-4,-70,27,0,1245,0,99,24,-46,7,-457,-4,1986,187,248,157,212,3,8,0,1,1,-0.0038226763781269426,0.27333376295299133,4.400737337266531,-32,-37,22,-4,-70,27,0,28,24,-20,"",""
464,22762944,-36,-37,20,0,0,0,6,0,0,0,0,0,-19,62,1000,-4,-70,27,0,1245,0,99,23,-44,9,-449,-1,1983,184,247,157,209,3,8,0,1,1,-0.0032804033485565464,0.27161913236541746,4.400556008668948,-30,-37,20,-4,-70,27,0,27,26,-18,"",""
472,22764001,-37,-40,21,0,0,0,6,-2,0,0,0,0,-19,62,1000,-4,-70,27,0,1245,0,99,24,-42,8,-440,1,1981,174,257,157,222,3,8,0,1,1,-0.0027388275710228346,0.2699502250695581,4.40040275210039,-31,-42,21,-4,-70,27,0,28,28,-19,"",""
480,22765041,-38,-43,24,0,0,0,4,-9,0,0,0,0,-19,62,1000,-4,-69,27,0,1245,0,99,24,-40,5,-432,1,1979,167,275,157,241,3,8,0,1,1,-0.0022302392224879267,0.268311065084825,4.400308528030799,-34,-52,24,-4,-69,27,0,28,29,-22,"",""
488,22766111,-38,-45,28,0,0,0,1,-16,0,0,0,0,-19,62,1000,-4,-69,27,0,1245,0,99,25,-38,2,-425,3,1976,165,292,157,257,3,8,0,1,1,-0.0016979463284697472,0.2666798656135703,4.400270647224029,-37,-61,28,-4,-69,27,0,29,31,-25,"",""
496,22767200,-39,-46,31,0,0,0,-1,-19,0,0,0,0,-19,61,1000,-4,-69,27,0,1245,0,99,25,-38,-2,-420,6,1975,172,299,157,263,3,8,0,1,1,-0.0011624139125217374,0.2650393951496552,4.4003122701161805,-40,-65,31,-4,-69,27,0,29,31,-29,"",""
504,22768254,-38,-45,34,0,0,0,-2,-16,0,0,0,0,-18,60,1000,-4,-69,26,0,1245,0,99,24,-38,-5,-415,12,1974,183,287,157,263,3,8,0,1,1,-0.0006347718895789443,0.26342493912139625,4.4004127093739696,-40,-61,34,-4,-69,26,0,28,31,-31,"",""
512,22769310,-36,-43,35,0,0,0,0,-10,0,0,0,0,-18,59,1000,-4,-69,26,0,1245,0,99,23,-39,-6,-412,19,1973,193,260,157,257,3,8,0,1,1,-0.0000825793585053847,0.26180881172078646,4.400535763573198,-36,-53,35,-4,-69,26,0,27,30,-32,"",""
520,22770445,-34,-42,34,0,0,0,5,-2,0,0,0,0,-18,58,1000,-4,-68,25,0,1245,0,99,21,-40,-5,-408,28,1973,192,233,157,253,3,8,0,1,1,0.0005259378436670393,0.26012801601515806,4.4006512452964905,-29,-44,34,-4,-68,25,0,25,28,-30,"",""
528,22771509,-32,-41,30,0,0,0,10,1,0,0,0,0,-18,57,1000,-5,-68,25,0,1248,0,99,19,-39,-3,-404,37,1972,182,216,157,251,3,8,0,1,1,0.0011420712429517502,0.2585246895539279,4.4007261946369765,-22,-40,30,-5,-68,25,0,24,29,-28,"",""
536,22772580,-30,-41,26,0,0,0,14,2,0,0,0,0,-17,56,1000,-5,-68,24,0,1248,0,99,18,-39,1,-399,43,1971,163,213,157,250,3,8,0,1,1,0.0017947312499533258,0.2569181561639724,4.400727008574818,-16,-39,26,-5,-68,24,0,23,29,-23,"",""
544,22773641,-29,-41,22,0,0,0,15,1,0,0,0,0,-17,55,1000,-5,-67,24,0,1248,0,99,17,-39,4,-394,47,1970,157,218,157,250,3,8,0,1,1,0.002456771706396768,0.2553196788835687,4.400672391837745,-14,-40,22,-5,-67,24,0,22,28,-20,"",""
552,22774703,-29,-43,22,0,0,0,13,-1,0,0,0,0,-17,55,1000,-5,-67,24,0,1248,0,99,17,-38,4,-389,47,1970,157,231,157,255,3,8,0,1,1,0.003104612637887252,0.2537381626341487,4.4006174822022155,-16,-44,22,-5,-67,24,0,22,29,-20,"",""
560,22775754,-31,-44,24,0,0,0,9,-5,0,0,0,0,-17,53,1000,-6,-66,23,0,1248,0,99,18,-36,1,-383,46,1971,157,247,157,258,3,8,0,1,1,0.0037317215110743074,0.2521904767507732,4.400619340224572,-22,-49,24,-6,-66,23,0,24,30,-22,"",""
568,22776817,-32,-45,26,0,0,0,4,-9,0,0,0,0,-17,52,1000,-6,-66,22,0,1248,0,99,19,-35,-1,-379,45,1971,157,266,157,257,3,8,0,1,1,0.0043510687811760575,0.25065946888522533,4.400658500404913,-28,-54,26,-6,-66,22,0,25,31,-23,"",""
576,22777915,-33,-46,26,0,0,0,-1,-11,0,0,0,0,-17,51,1000,-6,-66,22,0,1248,0,99,20,-35,-2,-376,44,1972,166,283,157,249,3,8,0,1,1,0.004975981990871651,0.24911785105742365,4.400717414067454,-34,-57,26,-6,-66,22,0,26,31,-24,"",""
584,22778993,-34,-46,24,0,0,0,-5,-11,0,0,0,0,-17,49,1000,-6,-66,21,0,1248,0,99,20,-34,-1,-374,47,1973,172,296,157,238,3,8,0,1,1,0.005608349834599893,0.24762371303821437,4.400757271603633,-39,-57,24,-6,-66,21,0,26,32,-22,"",""
592,22780048,-33,-46,22,0,0,0,-6,-9,0,0,0,0,-17,48,1000,-6,-66,21,0,1248,0,99,20,-34,1,-372,52,1974,170,298,157,229,3,8,0,1,1,0.006265299003261566,0.24615869940218876,4.400760870569745,-39,-55,22,-6,-66,21,0,26,32,-20,"",""
600,22781103,-31,-45,19,0,0,0,-3,-6,0,0,0,0,-17,47,1000,-6,-66,20,0,1248,0,99,18,-35,3,-368,59,1976,164,285,157,226,3,8,0,1,1,0.006931202921985494,0.24467550856926498,4.40072982183471,-34,-51,19,-6,-66,20,0,24,31,-17,"",""
608,22782162,-29,-43,18,0,0,0,2,-1,0,0,0,0,-17,46,1000,-6,-65,20,0,1248,0,99,16,-36,3,-364,64,1977,158,259,157,227,3,8,0,1,1,0.007583227068134743,0.24317375112878445,4.40070094858894,-27,-44,18,-6,-65,20,0,22,29,-17,"",""
616,22783268,-26,-43,19,0,0,0,10,2,0,0,0,0,-17,46,1000,-6,-65,20,0,1248,0,99,14,-36,2,-359,66,1979,157,230,157,241,3,8,0,1,1,0.008206370522458272,0.2416372505312178,4.4006904280200905,-16,-41,19,-6,-65,20,0,20,29,-18,"",""
624,22784325,-26,-44,22,0,0,0,15,3,0,0,0,0,-17,45,1000,-6,-65,19,0,1248,0,99,13,-35,-1,-353,65,1981,157,213,157,259,3,8,0,1,1,0.008766319570671227,0.2401383484917011,4.40073751107621,-11,-41,22,-6,-65,19,0,19,30,-20,"",""
632,22785351,-27,-46,26,0,0,0,14,0,0,0,0,0,-17,44,1000,-6,-65,19,0,1248,0,99,14,-33,-5,-347,61,1982,157,222,157,272,3,8,0,1,1,0.009281952606682303,0.2386840425681078,4.400855011550524,-13,-46,26,-6,-65,19,0,20,32,-24,"",""
640,22786405,-30,-49,27,0,0,0,7,-6,0,0,0,0,-17,42,1000,-6,-65,18,0,1248,0,99,17,-31,-7,-342,57,1983,157,257,157,273,3,8,0,1,1,0.009812989271361277,0.2372463486021337,4.40101037573283,-23,-55,27,-6,-65,18,0,23,34,-25,"",""
648,22787485,-34,-52,26,0,0,0,-3,-13,0,0,0,0,-17,41,1000,-6,-65,17,0,1248,0,99,19,-29,-6,-340,54,1985,157,305,157,261,3,8,0,1,1,0.010363331232431912,0.2358445643341155,4.401147551611521,-37,-65,26,-6,-65,17,0,25,36,-23,"",""
656,22788546,-35,-52,22,0,0,0,-12,-18,0,0,0,0,-16,40,1000,-7,-64,17,0,1248,0,99,20,-28,-3,-340,54,1986,158,339,157,244,3,8,0,1,1,0.010929917306577514,0.23449558346162913,4.401224913713199,-47,-70,22,-7,-64,17,0,27,36,-20,"",""
664,22789601,-32,-51,18,0,0,0,-13,-16,0,0,0,0,-16,39,1000,-7,-64,17,0,1248,0,99,18,-29,0,-343,57,1989,157,337,157,235,3,8,0,1,1,0.011480507825016438,0.23317028971613485,4.401246510771458,-45,-67,18,-7,-64,17,0,25,35,-17,"",""
672,22790661,-27,-47,15,0,0,0,-4,-9,0,0,0,0,-16,38,1000,-7,-63,16,0,1248,0,99,14,-31,2,-345,62,1991,157,295,157,234,3,8,0,1,1,0.01199010084982034,0.23183941450976367,4.401232740532181,-31,-56,15,-7,-63,16,0,21,32,-14,"",""
680,22791752,-23,-43,14,0,0,0,9,2,0,0,0,0,-16,38,1000,-7,-63,16,0,1244,20,99,11,-34,3,-347,67,1993,157,234,157,239,3,8,0,1,1,0.01247715473048479,0.23046856115364964,4.401201455603544,-14,-41,14,-7,-63,16,0,18,29,-13,"",""
688,22792810,-20,-42,15,0,0,0,21,12,0,0,0,0,-16,37,1000,-7,-63,16,0,1244,20,99,9,-35,2,-347,71,1994,157,184,157,245,3,8,0,1,1,0.012932403406845157,0.22912180133266458,4.401192677264094,1,-30,15,-7,-63,16,0,16,28,-14,"",""
696,22793865,-22,-43,17,0,0,0,24,15,0,0,0,0,-16,37,1000,-7,-63,16,0,1244,20,99,10,-34,0,-345,71,1995,157,172,157,248,3,8,0,1,1,0.013388207056687019,0.22780599927312564,4.401221373196776,2,-28,17,-7,-63,16,0,17,29,-16,"",""
704,22794914,-26,-45,20,0,0,0,16,10,0,0,0,0,-16,37,1000,-7,-63,16,0,1244,20,99,13,-32,-3,-342,70,1994,157,204,157,244,3,8,0,1,1,0.013870427780622701,0.2265374736850639,4.401305195402393,-10,-35,20,-7,-63,16,0,20,31,-19,"",""
712,22795980,-30,-49,22,0,0,0,1,0,0,0,0,0,-16,37,1000,-7,-63,15,0,1244,20,99,16,-29,-5,-339,69,1994,161,265,157,240,3,8,0,1,1,0.014388699465785273,0.22532009155109253,4.4014266802758115,-29,-49,22,-7,-63,15,0,23,34,-20,"",""
720,22797040,-34,-52,23,0,0,0,-13,-12,0,0,0,0,-16,37,1000,-7,-62,15,0,1244,20,99,19,-27,-6,-337,69,1993,170,325,157,235,3,8,0,1,1,0.01494775971927939,0.22415357732837907,4.401565674555133,-47,-64,23,-7,-62,15,0,26,35,-21,"",""
728,22798096,-35,-53,23,0,0,0,-21,-20,0,0,0,0,-16,37,1000,-7,-62,15,0,1244,20,99,19,-26,-5,-337,72,1993,170,361,157,232,3,8,0,1,1,0.015518552815501666,0.22302688826886446,4.401686085376433,-56,-73,23,-7,-62,15,0,26,36,-20,"",""
736,22799154,-34,-52,21,0,0,0,-21,-20,0,0,0,0,-16,37,1000,-7,-62,15,0,1244,20,99,18,-26,-4,-338,77,1993,165,359,157,233,3,8,0,1,1,0.016095836569090673,0.2219236564563481,4.4017897597013675,-55,-72,21,-7,-62,15,0,25,36,-19,"",""
744,22800248,-31,-50,20,0,0,0,-12,-13,0,0,0,0,-16,37,1000,-7,-62,15,0,1244,20,99,16,-28,-3,-340,83,1992,159,322,157,233,3,8,0,1,1,0.01667538266899985,0.2207968044778184,4.401879854260624,-43,-63,20,-7,-62,15,0,23,34,-18,"",""
752,22801301,-29,-46,19,0,0,0,0,-2,0,0,0,0,-16,37,1000,-8,-62,15,0,1244,20,99,14,-30,-2,-342,88,1992,158,269,157,230,3,8,0,1,1,0.017230775256269912,0.21968208457507904,4.401951270817803,-29,-48,19,-8,-62,15,0,22,32,-17,"",""
760,22802367,-26,-44,18,0,0,0,10,8,0,0,0,0,-16,36,1000,-8,-62,15,0,1244,20,99,12,-31,-1,-344,92,1992,157,221,157,231,3,8,0,1,1,0.017769689870955237,0.21857025295890442,4.402006170056154,-16,-36,18,-8,-62,15,0,20,31,-16,"",""
768,22803424,-24,-44,19,0,0,0,16,13,0,0,0,0,-16,36,1000,-8,-61,15,0,1244,20,99,11,-31,-2,-345,93,1991,158,196,158,240,3,8,0,1,1,0.01828107787147652,0.2174872379532988,4.402079968165314,-8,-31,19,-8,-61,15,0,19,30,-17,"",""
776,22804560,-24,-46,21,0,0,0,17,10,0,0,0,0,-16,35,1000,-8,-61,15,0,1244,20,99,11,-30,-4,-344,93,1991,158,199,158,255,3,8,0,1,1,0.018789472915652423,0.21639358573609846,4.402197388457307,-7,-36,21,-8,-61,15,0,19,31,-19,"",""
784,22805610,-24,-48,23,0,0,0,14,2,0,0,0,0,-16,33,1000,-8,-61,14,0,1244,20,99,11,-28,-7,-343,91,1990,158,221,158,270,3,8,0,1,1,0.0192520129061119,0.21539399350242466,4.402362194839656,-10,-46,23,-8,-61,14,0,19,33,-21,"",""
792,22806670,-25,-50,24,0,0,0,8,-5,0,0,0,0,-15,32,1000,-8,-61,14,0,1244,20,99,11,-27,-8,-342,90,1989,158,250,158,279,3,8,0,1,1,0.019699347782157393,0.21441935979107854,4.402546172609989,-17,-55,24,-8,-61,14,0,19,34,-22,"",""
800,22807720,-26,-50,23,0,0,0,2,-10,0,0,0,0,-15,31,1000,-8,-60,13,0,1244,20,99,12,-26,-8,-342,91,1988,158,274,158,273,3,8,0,1,1,0.02016157117446208,0.21348321347997148,4.402728420024466,-24,-60,23,-8,-60,13,0,20,34,-21,"",""
808,22808837,-26,-49,21,0,0,0,-1,-10,0,0,0,0,-15,31,1000,-8,-60,13,0,1244,20,99,12,-27,-6,-342,93,1988,158,285,158,259,3,8,0,1,1,0.020647157204457794,0.2125110136079254,4.402882003995498,-27,-59,21,-8,-60,13,0,20,33,-19,"",""
816,22809894,-27,-47,17,0,0,0,-3,-6,0,0,0,0,-15,30,1000,-8,-60,13,0,1244,20,99,12,-28,-3,-343,96,1988,158,285,158,237,3,8,0,1,1,0.021141769600810743,0.2115662974763236,4.402973456324395,-30,-53,17,-8,-60,13,0,20,32,-16,"",""
824,22810976,-27,-46,13,0,0,0,-2,0,0,0,0,0,-15,30,1000,-8,-60,12,0,1249,0,99,12,-29,0,-343,98,1989,158,277,158,216,3,8,0,1,1,0.021655808874760412,0.21060198375746825,4.403009645414571,-29,-46,13,-8,-60,12,0,20,31,-12,"",""
832,22812070,-26,-44,10,0,0,0,-1,3,0,0,0,0,-14,29,1000,-8,-59,12,0,1249,0,99,12,-29,3,-342,98,1989,158,268,158,204,3,8,0,1,1,0.022176497023579586,0.20963887463524566,4.4029871914395615,-27,-41,10,-8,-59,12,0,20,30,-9,"",""
840,22813122,-25,-44,9,0,0,0,1,4,0,0,0,0,-12,29,1000,-8,-58,12,0,1249,0,99,11,-28,4,-342,97,1988,158,263,158,207,3,8,0,1,1,0.022660998699162705,0.20872885950082848,4.402946686292507,-24,-40,9,-8,-58,12,0,19,30,-8,"",""
848,22814179,-27,-44,10,0,0,0,2,0,0,0,0,0,-10,29,1000,-8,-57,12,0,1249,0,99,12,-27,2,-341,96,1988,158,267,158,214,3,8,0,1,1,0.023144725880578615,0.2078430621266337,4.402942488021701,-25,-44,10,-8,-57,12,0,20,30,-10,"",""
856,22815238,-30,-44,14,0,0,0,-1,-4,0,0,0,0,-9,29,1000,-8,-56,12,0,1249,0,99,15,-25,-1,-340,96,1989,158,283,158,218,3,8,0,1,1,0.023665166691045195,0.2070003586181466,4.402993737886493,-31,-48,14,-8,-56,12,0,23,31,-13,"",""
864,22816323,-33,-44,17,0,0,0,-8,-8,0,0,0,0,-7,29,1000,-8,-55,12,0,1249,0,99,17,-25,-4,-341,97,1989,171,302,158,214,3,8,0,1,1,0.02421560366860159,0.20616401689848976,4.403103926222004,-41,-52,17,-8,-55,12,0,25,30,-16,"",""
872,22817384,-31,-43,20,0,0,0,-13,-9,0,0,0,0,-6,29,1000,-8,-54,12,0,1249,0,99,16,-25,-6,-342,102,1989,182,304,158,212,3,8,0,1,1,0.02475074400778687,0.20535473254094175,4.403251909491591,-44,-52,20,-8,-54,12,0,24,29,-18,"",""
880,22818438,-28,-40,21,0,0,0,-8,-7,0,0,0,0,-5,29,1000,-8,-53,12,0,1249,0,99,12,-25,-7,-344,107,1990,178,279,158,220,3,8,0,1,1,0.025224583249234322,0.20456797285940745,4.403419791703244,-36,-47,21,-8,-53,12,0,20,28,-19,"",""
888,22819498,-23,-38,20,0,0,0,3,-2,0,0,0,0,-4,29,1000,-8,-53,12,0,1249,0,100,9,-27,-6,-345,112,1992,158,236,158,237,3,8,0,1,1,0.02566545480486071,0.2037544472819392,4.40357249228948,-20,-40,20,-8,-53,12,0,17,26,-18,"",""
896,22820577,-20,-36,16,0,0,0,16,2,0,0,0,0,-3,29,1000,-8,-52,12,0,1249,0,100,7,-27,-3,-346,115,1993,158,198,158,247,3,8,0,1,1,0.02609082534932663,0.20294462979199382,4.403670876598018,-4,-34,16,-8,-52,12,0,15,25,-15,"",""
904,22821634,-19,-35,13,0,0,0,22,5,0,0,0,0,-1,29,1000,-8,-51,12,0,1249,0,100,6,-27,0,-345,114,1993,158,184,158,246,3,8,0,1,1,0.026495462059228175,0.2021491293783398,4.403710662498869,3,-30,13,-8,-51,12,0,14,24,-12,"",""
912,22822694,-21,-35,12,0,0,0,20,4,0,0,0,0,0,29,1000,-8,-50,12,0,1249,0,100,8,-26,1,-344,110,1992,158,196,158,238,3,8,0,1,1,0.02691572918984795,0.20137633824093898,4.4037291424790155,-1,-31,12,-8,-50,12,0,16,24,-11,"",""
920,22823752,-24,-37,14,0,0,0,9,0,0,0,0,0,1,29,1000,-8,-49,12,0,1249,0,100,10,-24,-1,-343,104,1992,158,230,158,230,3,8,0,1,1,0.02733055395221149,0.20064708769750855,4.403781434910003,-15,-37,14,-8,-49,12,0,18,25,-13,"",""
928,22824856,-28,-38,17,0,0,0,-2,-7,0,0,0,0,2,29,1000,-8,-49,12,0,1249,0,100,12,-22,-4,-342,98,1993,163,270,158,222,3,8,0,1,1,0.02774583142785133,0.19994221939671172,4.403890087512357,-30,-45,17,-8,-49,12,0,20,27,-16,"",""
936,22825910,-30,-38,18,0,0,0,-12,-12,0,0,0,0,3,29,1000,-8,-48,12,0,1249,0,100,14,-22,-5,-342,95,1994,179,301,158,210,3,8,0,1,1,0.028164826889543533,0.1992646274654347,4.404011822540571,-42,-50,18,-8,-48,12,0,22,26,-17,"",""
944,22826942,-31,-36,17,0,0,0,-17,-12,0,0,0,0,4,29,1000,-9,-47,12,0,1249,0,100,14,-23,-4,-343,95,1995,191,308,158,193,3,8,0,1,1,0.028577069913567156,0.19858885817616953,4.404113258115087,-48,-48,17,-9,-47,12,0,23,24,-16,"",""
952,22828004,-30,-33,15,0,0,0,-14,-6,0,0,0,0,5,29,1000,-9,-47,12,0,1249,0,100,14,-24,-2,-344,96,1996,197,290,158,178,3,8,0,1,1,0.029002714635427043,0.19789343826451927,4.40418012494633,-44,-39,15,-9,-47,12,0,23,23,-14,"",""
960,22829110,-29,-29,14,0,0,0,-8,2,0,0,0,0,5,29,1000,-9,-47,12,0,1249,0,100,13,-27,-1,-344,97,1998,205,253,158,167,3,8,0,1,1,0.029422045998325392,0.19712826824377766,4.404231362768759,-37,-27,14,-9,-47,12,0,22,20,-13,"",""
968,22830159,-27,-26,15,0,0,0,-1,11,0,0,0,0,6,30,1000,-9,-46,13,0,1249,0,100,12,-28,-1,-342,96,1999,213,212,158,163,3,8,0,1,1,0.02980090536141366,0.19637068534353297,4.404280715235801,-28,-15,15,-9,-46,13,0,21,18,-14,"",""
976,22831214,-26,-24,18,0,0,0,4,15,0,0,0,0,8,32,1000,-9,-45,13,0,1253,0,100,10,-28,-3,-338,93,2000,216,182,158,171,3,8,0,1,1,0.03011902766630262,0.19560181356931947,4.404366321189953,-22,-9,18,-9,-45,13,0,19,17,-16,"",""
984,22832272,-24,-25,21,0,0,0,8,12,0,0,0,0,9,33,1000,-9,-44,14,0,1253,0,100,10,-26,-5,-333,88,2000,204,175,158,195,3,8,0,1,1,0.030404484264161976,0.19485657085901362,4.404486301657004,-16,-13,21,-9,-44,14,0,19,18,-19,"",""
992,22833382,-25,-27,23,0,0,0,9,3,0,0,0,0,11,34,1000,-9,-43,14,0,1253,0,100,10,-24,-6,-328,82,2002,187,190,158,219,3,8,0,1,1,0.03066424704571106,0.19411277319590506,4.404627390832481,-16,-24,23,-9,-43,14,0,19,19,-20,"",""
1000,22834438,-25,-28,23,0,0,0,6,-7,0,0,0,0,12,36,1000,-9,-42,15,0,1253,0,100,10,-22,-6,-324,76,2003,171,219,158,236,3,8,0,1,1,0.03088681942755926,0.19341869558811192,4.404758112365044,-19,-35,23,-9,-42,15,0,19,20,-21,"",""
1008,22835488,-27,-29,22,0,0,0,2,-14,0,0,0,0,13,37,1000,-10,-41,15,0,1253,0,100,11,-22,-4,-324,72,2004,166,245,158,236,3,8,0,1,1,0.031113893368028753,0.19273313198850037,4.4048489496817735,-25,-43,22,-10,-41,15,0,21,19,-19,"",""
1016,22836547,-28,-28,20,0,0,0,-1,-15,0,0,0,0,14,38,1000,-10,-41,16,0,1253,0,100,12,-22,-2,-328,69,2005,173,259,158,222,3,8,0,1,1,0.03135267089051144,0.19206685006901822,4.4049015314530475,-29,-43,20,-10,-41,16,0,22,19,-18,"",""
1024,22837633,-28,-25,18,0,0,0,-4,-11,0,0,0,0,15,38,1000,-10,-40,16,0,1253,0,100,12,-23,-1,-332,67,2007,188,255,157,199,3,8,0,1,1,0.03158926083443568,0.19139346224824016,4.404935780731721,-32,-36,18,-10,-40,16,0,22,17,-17,"",""
1032,22838736,-28,-22,18,0,0,0,-4,-4,0,0,0,0,16,40,1000,-10,-39,17,0,1253,0,100,11,-24,0,-337,68,2009,205,235,157,180,3,8,0,1,1,0.031815626256424714,0.19071994445820764,4.404951938577959,-32,-26,18,-10,-39,17,0,21,15,-17,"",""
1040,22839796,-27,-19,18,0,0,0,-2,2,0,0,0,0,19,41,1000,-10,-38,18,0,1253,0,100,11,-25,1,-339,69,2010,218,208,157,169,3,8,0,1,1,0.032039372840144145,0.19005985692850652,4.404949634093869,-29,-17,18,-10,-38,18,0,21,13,-17,"",""
1048,22840853,-26,-16,20,0,0,0,1,7,0,0,0,0,21,43,1000,-10,-36,18,0,1253,0,100,10,-25,0,-339,70,2011,225,184,157,167,3,8,0,1,1,0.03224276465478989,0.1894077444206008,4.404966457896659,-25,-9,20,-10,-36,18,0,20,11,-18,"",""
1056,22841955,-25,-14,21,0,0,0,4,7,0,0,0,0,24,45,1000,-10,-34,19,0,1253,0,100,9,-24,0,-335,70,2012,226,169,157,172,3,8,0,1,1,0.032432870643668565,0.18874509537698067,4.404983177686035,-21,-7,21,-10,-34,19,0,19,10,-19,"",""
1064,22843010,-25,-14,23,0,0,0,5,3,0,0,0,0,27,46,1000,-10,-33,20,0,1253,0,100,9,-23,-1,-329,69,2012,219,170,157,185,3,8,0,1,1,0.03260654108326458,0.18810367243812284,4.405016834519733,-20,-11,23,-10,-33,20,0,19,10,-21,"",""
1072,22844067,-25,-15,24,0,0,0,5,-2,0,0,0,0,29,47,1000,-10,-32,20,0,1253,0,100,9,-21,-2,-325,68,2013,208,184,157,201,3,8,0,1,1,0.03277148716091657,0.18748873732507992,4.405067557637003,-20,-17,24,-10,-32,20,0,19,11,-22,"",""
1080,22845128,-26,-16,25,0,0,0,2,-9,0,0,0,0,30,48,1000,-10,-31,21,0,1253,0,100,10,-20,-2,-322,67,2014,202,203,157,210,3,8,0,1,1,0.032949880460672876,0.18688468728693503,4.40511731490607,-24,-25,25,-10,-31,21,0,20,11,-23,"",""
1088,22846248,-28,-15,25,0,0,0,0,-13,0,0,0,0,32,49,1000,-10,-30,21,0,1253,0,99,11,-19,-2,-323,66,2014,207,220,157,206,3,8,0,1,1,0.03315195978384807,0.186290073139802,4.405168711076768,-28,-28,25,-10,-30,21,0,21,11,-23,"",""
1096,22847287,-29,-15,25,0,0,0,-4,-14,0,0,0,0,33,50,1000,-10,-29,21,0,1253,0,99,12,-18,-1,-326,66,2014,212,229,157,199,3,8,0,1,1,0.03335918335537939,0.1857573405025318,4.405197205105348,-33,-29,25,-10,-29,21,0,22,11,-22,"",""
1104,22848345,-28,-14,24,0,0,0,-5,-12,0,0,0,0,35,50,1000,-10,-28,22,0,1253,0,99,11,-18,0,-329,67,2014,217,228,157,190,3,8,0,1,1,0.033557742799335405,0.185235302408081,4.405207817333505,-33,-26,24,-10,-28,22,0,21,10,-22,"",""
1112,22849407,-27,-12,22,0,0,0,-3,-9,0,0,0,0,36,50,1000,-10,-27,22,0,1253,0,99,11,-18,1,-331,70,2015,220,216,157,182,3,8,0,1,1,0.033770722295117045,0.1847236880946884,4.40520077187002,-30,-21,22,-10,-27,22,0,21,9,-21,"",""
1120,22850498,-26,-10,21,0,0,0,0,-4,0,0,0,0,38,50,1000,-10,-26,22,0,1253,0,99,10,-19,2,-332,73,2015,221,196,157,177,3,8,0,1,1,0.0339838782012336,0.184192441895639,4.405175973488805,-26,-14,21,-10,-26,22,0,20,7,-20,"",""
1128,22851554,-25,-8,20,0,0,0,3,0,0,0,0,0,39,51,1000,-10,-25,22,0,1243,0,99,9,-19,3,-330,77,2015,219,176,157,175,3,8,0,1,1,0.03418983295826256,0.18366966289534123,4.405134810672902,-22,-8,20,-10,-25,22,0,19,6,-19,"",""
1136,22852613,-23,-7,20,0,0,0,7,1,0,0,0,0,41,51,1000,-10,-24,22,0,1243,0,99,7,-19,3,-327,81,2014,217,158,157,177,3,8,0,1,1,0.03437350768813607,0.183140312348808,4.405095064482814,-16,-6,20,-10,-24,22,0,17,5,-19,"",""
1144,22853740,-22,-7,21,0,0,0,9,2,0,0,0,0,42,50,1000,-10,-24,22,0,1243,0,99,7,-19,2,-323,83,2014,212,157,157,185,3,8,0,1,1,0.0345683314681831,0.1825792798174394,4.40507317528707,-13,-5,21,-10,-24,22,0,17,5,-20,"",""
1152,22854798,-22,-9,22,0,0,0,9,0,0,0,0,0,42,50,1000,-10,-23,22,0,1243,0,99,7,-17,2,-319,82,2015,205,157,157,195,3,8,0,1,1,0.03474887175995131,0.1820675176234486,4.405051086681165,-13,-9,22,-10,-23,22,0,17,6,-20,"",""
1160,22855859,-22,-10,22,0,0,0,7,-5,0,0,0,0,43,50,1000,-10,-23,22,0,1243,0,99,7,-15,1,-315,80,2015,199,174,157,205,3,8,0,1,1,0.0349172735070824,0.18158256291356115,4.405045498337369,-15,-15,22,-10,-23,22,0,17,8,-21,"",""
1168,22856910,-24,-12,21,0,0,2,3,-11,0,0,0,0,43,51,1001,-11,-22,22,1,1243,0,99,8,-14,2,-312,77,2014,201,200,157,208,3,8,0,1,1,0.03509326571435189,0.18111238923614392,4.405019390055927,-21,-23,23,-11,-22,22,0.1,19,8,-20,"",""
1176,22857991,-25,-14,20,0,0,3,-1,-14,0,0,0,0,43,51,1002,-11,-22,22,2,1243,0,99,9,-13,4,-310,75,2012,203,226,157,209,3,8,0,1,1,0.03529042139410814,0.18065118040176265,4.404952579705997,-26,-28,23,-11,-22,22,0.2,20,9,-18,"",""
1184,22859049,-26,-14,17,-1,0,4,-4,-16,0,0,0,0,44,51,1003,-11,-22,22,4,1243,0,99,9,-12,6,-308,74,2010,208,244,157,204,3,8,0,1,1,0.03548541071441659,0.1802110025510681,4.40484855229542,-31,-30,21,-11,-22,22,0.4,20,10,-16,"",""
1192,22860104,-26,-14,15,-1,0,5,-6,-14,0,0,0,0,44,52,1004,-11,-22,22,5,1243,0,99,9,-12,8,-305,76,2009,215,247,157,199,3,8,0,1,1,0.03569256429639584,0.1797644223883546,4.4047081042229,-33,-28,20,-11,-22,22,0.5,20,10,-14,"",""
1200,22861156,-24,-14,14,-1,0,6,-3,-9,0,0,0,0,44,52,1004,-11,-22,22,6,1243,0,99,8,-12,9,-302,79,2007,218,234,157,200,3,8,0,1,1,0.035893976929321225,0.17931282286405123,4.404550516927122,-28,-23,20,-11,-22,22,0.6,19,10,-13,"",""
1208,22862247,-22,-15,15,-1,-1,7,1,-5,0,0,0,0,43,52,1005,-11,-22,23,7,1243,0,99,6,-12,8,-300,84,2005,217,211,157,213,3,8,0,1,1,0.03607766087350321,0.17885219897324198,4.4044082563389635,-22,-21,22,-11,-22,23,0.7,17,10,-15,"",""
1216,22863306,-19,-15,19,-2,-1,8,7,-3,0,0,0,0,43,53,1006,-11,-22,23,8,1243,0,99,4,-11,6,-297,87,2003,213,186,157,236,3,8,0,1,1,0.03622369321592211,0.17841321943789298,4.404308267095958,-14,-19,27,-11,-22,23,0.8,15,11,-17,"",""
1224,22864378,-18,-17,23,-2,-1,9,12,-3,0,0,0,0,43,53,1006,-11,-22,23,9,1243,0,99,3,-11,2,-294,89,2002,211,169,157,261,3,8,0,1,1,0.036344928777226025,0.17796886212437674,4.404283689229679,-8,-21,32,-11,-22,23,0.9,14,11,-21,"",""
1232,22865432,-18,-18,26,-2,-1,11,13,-5,0,0,0,0,43,53,1007,-11,-22,23,10,1243,0,99,3,-9,-1,-290,88,2001,214,167,157,281,3,8,0,1,1,0.03645079587736057,0.17755754768086449,4.40431381373229,-7,-24,37,-11,-22,23,1,14,13,-24,"",""
1240,22866527,-19,-21,27,-2,-1,13,10,-9,0,0,0,0,43,53,1008,-11,-22,23,11,1243,0,99,4,-8,-2,-287,85,1999,218,184,157,293,3,8,0,1,1,0.03656266657690409,0.17715466097941446,4.404362350270741,-11,-31,40,-11,-22,23,1.1,15,14,-25,"",""
1248,22867583,-20,-23,25,-3,-2,14,4,-13,0,0,0,0,43,53,1010,-11,-22,23,13,1243,0,99,5,-6,0,-284,82,1998,221,215,157,295,3,8,0,1,1,0.03668550125381293,0.1767868593863058,4.404369245901198,-19,-38,39,-11,-22,23,1.3,16,16,-23,"",""
1256,22868625,-22,-25,20,-3,-2,16,-1,-16,0,0,0,0,43,53,1011,-11,-22,23,14,1243,0,99,6,-4,4,-281,79,1997,222,251,157,287,3,8,0,1,1,0.036826662680288294,0.17644824409826132,4.404299620297688,-26,-43,36,-11,-22,23,1.4,17,18,-19,"",""
1264,22869685,-23,-27,14,-3,-2,17,-6,-18,0,0,0,0,43,53,1012,-11,-22,23,15,1243,0,99,7,-3,10,-278,78,1997,220,281,157,275,3,8,0,1,1,0.03700333709677961,0.1761160964478333,4.404114883082044,-32,-47,31,-11,-22,23,1.5,18,19,-13,"",""
1272,22870760,-22,-27,8,-4,-3,18,-7,-16,0,0,0,0,43,52,1013,-11,-22,23,17,1243,0,99,6,-3,15,-276,80,1997,215,292,157,266,3,8,0,1,1,0.03718589970788866,0.17577645810256684,4.403832953752633,-33,-46,26,-11,-22,23,1.7,17,19,-8,"",""
1280,22871819,-20,-27,5,-4,-3,19,-4,-12,0,0,0,0,43,52,1014,-11,-22,23,17,1264,0,99,4,-3,17,-274,83,1997,210,280,157,264,3,8,0,1,1,0.03734493563133005,0.17543333112414222,4.40351878100756,-28,-42,24,-11,-22,23,1.7,15,19,-6,"",""
1288,22872921,-17,-26,6,-4,-4,19,3,-6,0,0,0,0,43,52,1014,-11,-22,23,18,1264,0,99,2,-4,17,-274,87,1998,204,248,157,276,3,8,0,1,1,0.03748333383781187,0.17507152753572244,4.403193917511408,-18,-36,25,-11,-22,23,1.8,13,18,-6,"",""
1296,22874005,-15,-26,9,-4,-4,20,11,-1,0,0,0,0,43,51,1015,-11,-22,22,19,1264,0,99,0,-4,13,-272,91,1998,203,214,157,295,3,8,0,1,1,0.0375819402151768,0.17471105018142105,4.402952678184998,-8,-31,29,-11,-22,22,1.9,11,18,-9,"",""
1304,22875063,-15,-26,14,-5,-4,20,15,0,0,0,0,0,43,49,1016,-11,-22,21,20,1264,0,99,0,-4,8,-270,93,1999,213,195,157,313,3,8,0,1,1,0.03766908743051399,0.17435258228481806,4.402811715290637,-5,-30,34,-11,-22,21,2,11,18,-13,"",""
1312,22876122,-16,-28,19,-5,-5,22,12,0,0,0,0,0,43,45,1017,-11,-22,19,22,1264,0,99,2,-2,2,-267,95,1999,230,202,157,323,3,8,0,1,1,0.03777974806669413,0.1740286911325562,4.40278236296599,-9,-33,41,-11,-22,19,2.2,13,20,-17,"",""
1320,22877181,-19,-30,20,-5,-5,23,4,-4,0,0,0,0,44,41,1019,-11,-21,17,23,1264,0,99,3,-1,-1,-264,96,1999,246,233,157,324,3,8,0,1,1,0.03790151742486041,0.17371889878517383,4.402808796749059,-20,-39,43,-11,-21,17,2.3,14,20,-18,"",""
1328,22878254,-21,-32,16,-5,-6,25,-4,-9,0,0,0,0,44,37,1020,-11,-21,16,25,1264,0,99,5,1,1,-261,99,2000,250,277,157,315,3,8,0,1,1,0.038076851729439774,0.1734376551924528,4.402796956880243,-30,-47,41,-11,-21,16,2.5,16,22,-15,"",""
1336,22879319,-21,-33,6,-6,-6,25,-9,-13,0,0,0,0,44,33,1021,-11,-21,14,26,1264,0,99,5,2,8,-261,102,2001,238,318,157,298,3,8,0,1,1,0.03828266557769767,0.17317256531477296,4.402653447604271,-36,-52,31,-11,-21,14,2.6,16,23,-6,"",""
1344,22880377,-20,-33,-4,-6,-7,25,-9,-14,0,0,0,0,45,30,1022,-11,-21,13,27,1264,0,99,4,2,17,-262,106,2003,214,342,157,284,3,8,0,1,1,0.03850958007801489,0.1729062268842841,4.402343601118534,-35,-54,21,-11,-21,13,2.7,15,23,4,"",""
1352,22881441,-18,-32,-12,-6,-7,25,-4,-11,0,0,0,0,45,28,1023,-11,-21,12,28,1264,0,99,2,1,23,-264,110,2004,193,338,157,275,3,8,0,1,1,0.03873070040594613,0.1726263710601145,4.401920926257033,-28,-50,13,-11,-21,12,2.8,13,22,11,"",""
1360,22882514,-15,-29,-13,-7,-8,24,3,-4,0,0,0,0,45,26,1023,-11,-21,11,28,1264,0,99,1,-1,23,-267,113,2005,187,308,157,272,3,8,0,1,1,0.038941620296808664,0.17232164079800374,4.401496989668265,-19,-41,11,-11,-21,11,2.8,12,20,12,"",""
1368,22883569,-14,-28,-9,-7,-8,23,9,3,0,0,0,0,45,24,1024,-11,-21,10,28,1264,0,99,0,-2,18,-268,115,2005,197,272,157,276,3,8,0,1,1,0.03912117254087806,0.1720092510685526,4.401175071198568,-12,-33,14,-11,-21,10,2.8,11,19,8,"",""
1376,22884632,-14,-29,-2,-7,-9,22,11,7,0,0,0,0,45,20,1024,-11,-21,8,28,1264,0,99,0,-1,10,-269,115,2006,213,249,157,287,3,8,0,1,1,0.039273658178902604,0.17172662963345847,4.4010002674250694,-10,-31,20,-11,-21,8,2.8,11,20,2,"",""
1384,22885689,-15,-32,4,-7,-9,23,9,5,0,0,0,0,45,17,1024,-11,-21,7,28,1264,0,99,0,1,3,-268,114,2007,220,253,157,306,3,8,0,1,1,0.03939890853111275,0.17148517907985283,4.400955502050638,-13,-36,27,-11,-21,7,2.8,11,22,-4,"",""
1392,22886815,-16,-34,7,-7,-10,23,4,-2,0,0,0,0,45,15,1024,-11,-21,6,28,1264,0,99,1,3,-1,-267,112,2007,216,279,157,322,3,8,0,1,1,0.03952310775725999,0.17128656800760833,4.400984302160988,-19,-46,30,-11,-21,6,2.8,12,24,-7,"",""
1400,22887873,-17,-36,6,-8,-10,23,0,-11,0,0,0,0,45,12,1024,-11,-21,5,28,1264,0,99,2,4,-1,-265,111,2006,208,313,157,326,3,8,0,1,1,0.03966031496372658,0.17109948974046163,4.401010784301861,-25,-57,29,-11,-21,5,2.8,13,25,-6,"",""
1408,22888943,-17,-36,1,-8,-11,24,-4,-14,0,0,0,0,45,10,1024,-11,-21,4,27,1264,0,99,2,4,3,-265,112,2007,199,336,157,316,3,8,0,1,1,0.03981245074587859,0.1709122114284947,4.400961858855564,-29,-61,25,-11,-21,4,2.7,13,25,-1,"",""
1416,22890058,-17,-35,-5,-8,-11,24,-5,-11,0,0,0,0,45,8,1024,-11,-21,3,27,1264,0,99,2,3,8,-265,115,2007,191,344,157,296,3,8,0,1,1,0.03999129282856925,0.1707071596848312,4.400813404212865,-30,-57,19,-11,-21,3,2.7,13,24,5,"",""
1424,22891118,-15,-33,-11,-8,-12,23,-2,-5,0,0,0,0,45,7,1024,-11,-21,3,27,1232,0,99,1,2,13,-265,117,2007,186,334,157,277,3,8,0,1,1,0.04016890915924966,0.17047997602106468,4.4005803365465335,-25,-50,12,-11,-21,3,2.7,12,23,10,"",""
1432,22892180,-14,-31,-11,-9,-12,22,1,1,0,0,0,0,45,6,1024,-11,-21,2,26,1232,0,99,-1,1,13,-267,117,2007,187,307,157,269,3,8,0,1,1,0.04030791642149992,0.1702432714157686,4.400347435243119,-22,-42,11,-11,-21,2,2.6,10,22,11,"",""
1440,22893237,-12,-30,-6,-9,-13,22,6,7,0,0,0,0,45,6,1024,-11,-21,2,26,1232,0,99,-2,0,8,-268,114,2008,197,275,157,274,3,8,0,1,1,0.04040144615834096,0.16999715608721516,4.400208816989993,-15,-36,16,-11,-21,2,2.6,9,21,6,"",""
1448,22894311,-12,-29,0,-9,-13,21,9,10,0,0,0,0,45,5,1024,-11,-21,2,26,1232,0,99,-2,0,2,-269,110,2008,210,249,157,287,3,8,0,1,1,0.040461835065230954,0.16976128515826286,4.400180367232454,-12,-32,21,-11,-21,2,2.6,9,21,0,"",""
1456,22895367,-12,-30,6,-9,-13,22,8,9,0,0,0,0,45,5,1024,-11,-21,2,26,1232,0,99,-1,0,-4,-268,107,2009,222,243,157,298,3,8,0,1,1,0.04051183649573676,0.16952892943284342,4.400263540713408,-13,-34,28,-11,-21,2,2.6,10,21,-6,"",""
1464,22896419,-13,-30,8,-9,-14,22,4,6,0,0,0,0,45,5,1024,-11,-21,2,25,1232,0,99,-1,0,-5,-268,105,2010,227,255,157,301,3,8,0,1,1,0.040551760152837325,0.1692993696839925,4.400364277779029,-18,-38,30,-11,-21,2,2.5,10,21,-7,"",""
1472,22897473,-14,-30,6,-9,-14,23,0,2,0,0,0,0,45,5,1024,-11,-21,2,25,1232,0,99,0,0,-4,-269,106,2010,228,274,157,295,3,8,0,1,1,0.040615570973259164,0.1690746000941825,4.400446797115008,-23,-42,29,-11,-21,2,2.5,11,21,-6,"",""
1480,22898565,-15,-29,2,-10,-14,23,-3,1,0,0,0,0,45,5,1024,-11,-21,2,25,1232,0,99,1,0,-1,-271,109,2011,227,292,157,283,3,8,0,1,1,0.04071602303105683,0.16885553741803463,4.400474938209739,-28,-42,25,-11,-21,2,2.5,12,21,-3,"",""
1488,22899620,-14,-29,0,-10,-15,23,-4,1,0,0,0,0,45,5,1024,-11,-21,2,25,1232,0,99,0,-1,3,-274,112,2012,222,300,157,273,3,8,0,1,1,0.04081812544924931,0.16862598981434945,4.400429423327428,-28,-43,23,-11,-21,2,2.5,11,20,1,"",""
1496,22900676,-14,-27,-2,-10,-15,23,-2,2,0,0,0,0,45,5,1024,-11,-21,2,25,1232,0,100,0,-2,5,-275,115,2013,218,294,157,269,3,8,0,1,1,0.040934376967737,0.16838140238046276,4.400348135563587,-26,-40,21,-11,-21,2,2.5,11,19,3,"",""
1504,22901732,-13,-26,-1,-10,-16,23,0,5,0,0,0,0,45,6,1024,-11,-21,2,25,1232,0,100,-1,-3,4,-274,114,2014,220,280,157,271,3,8,0,1,1,0.04102468302900259,0.16811820668668073,4.400285854213486,-23,-37,22,-11,-21,2,2.5,10,18,2,"",""
1512,22902826,-12,-27,2,-10,-16,23,2,6,0,0,0,0,45,6,1024,-11,-21,2,25,1232,0,100,-2,-2,0,-272,110,2013,221,266,157,283,3,8,0,1,1,0.04106996301998475,0.16787216971448052,4.4002962019875165,-20,-37,25,-11,-21,2,2.5,9,19,-2,"",""
1520,22903873,-12,-29,6,-10,-16,23,4,4,0,0,0,0,44,5,1024,-11,-21,2,25,1232,0,100,-2,-1,-4,-269,104,2012,219,261,157,303,3,8,0,1,1,0.04108596307804178,0.16764306777048918,4.400377782514252,-18,-41,29,-11,-21,2,2.5,9,20,-6,"",""
1528,22904931,-12,-31,10,-11,-17,24,3,0,0,0,0,0,44,5,1024,-11,-21,2,25,1232,0,100,-1,0,-7,-268,100,2010,214,270,157,325,3,8,0,1,1,0.04109840601256143,0.1674348702115775,4.400514189379404,-20,-48,34,-11,-21,2,2.5,10,21,-9,"",""
1536,22905983,-13,-32,12,-11,-17,24,2,-6,0,0,0,0,44,5,1024,-11,-21,2,25,1232,0,100,-1,1,-9,-270,98,2009,209,282,157,339,3,8,0,1,1,0.041098858943238246,0.167254958397147,4.400685632442873,-22,-55,36,-11,-21,2,2.5,10,22,-11,"",""
1544,22907136,-13,-30,12,-11,-17,25,0,-7,0,0,0,0,44,5,1024,-11,-22,2,24,1232,0,100,-1,-1,-9,-273,99,2008,214,285,157,336,3,8,0,1,1,0.04109758476153972,0.16704866271633692,4.400875067235831,-24,-54,37,-11,-22,2,2.4,10,21,-11,"",""
1552,22908196,-12,-26,10,-11,-18,26,0,-1,0,0,0,0,43,5,1024,-11,-22,2,24,1232,0,100,-1,-4,-8,-276,99,2007,233,269,157,314,3,8,0,1,1,0.041103058348232066,0.16679877333916643,4.40103318605352,-23,-45,36,-11,-22,2,2.4,10,18,-10,"",""
1560,22909286,-11,-22,8,-11,-18,26,0,9,0,0,0,0,43,5,1024,-11,-22,2,24,1232,0,100,-2,-7,-6,-277,98,2005,256,239,157,286,3,8,0,1,1,0.04109142605409473,0.16649488452203587,4.401159150966944,-22,-31,34,-11,-22,2,2.4,9,15,-8,"",""
1568,22910379,-10,-21,6,-11,-18,27,2,19,0,0,0,0,43,5,1024,-11,-22,2,24,1232,0,100,-3,-7,-4,-274,94,2004,265,217,157,269,3,8,0,1,1,0.041055230022206124,0.1661835531458001,4.40124551388972,-19,-20,33,-11,-22,2,2.4,8,15,-6,"",""
1576,22911430,-9,-23,4,-11,-19,27,5,19,0,0,0,0,43,4,1024,-11,-22,2,24,1249,0,100,-4,-6,-2,-269,88,2002,251,217,157,276,3,8,0,1,1,0.040992400493618214,0.16588325806228185,4.401288876414722,-15,-23,31,-11,-22,2,2.4,7,16,-4,"",""
1584,22912487,-10,-27,2,-12,-19,27,6,10,0,0,0,0,43,3,1024,-11,-21,1,24,1249,0,100,-3,-3,-1,-263,79,2001,223,244,157,299,3,8,0,1,1,0.040924927784910435,0.16562264937309143,4.401308653936186,-16,-36,29,-11,-21,1,2.4,8,18,-2,"",""
1592,22913541,-11,-30,1,-12,-19,27,4,-4,0,0,0,0,43,2,1024,-11,-21,1,24,1249,0,100,-3,0,-1,-260,71,2000,191,287,157,326,3,8,0,1,1,0.04083518468848967,0.16541148550738918,4.401323615287357,-19,-53,28,-11,-21,1,2.4,8,21,-2,"",""
1600,22914633,-12,-32,0,-12,-20,27,0,-15,0,0,0,0,43,1,1024,-11,-21,0,24,1249,0,100,-2,1,0,-260,65,1999,173,324,157,341,3,8,0,1,1,0.04074891535690074,0.16522119313993586,4.401317349288351,-24,-67,27,-11,-21,0,2.4,9,22,0,"",""
1608,22915688,-14,-32,0,-12,-20,27,-3,-19,0,0,0,0,43,0,1024,-11,-21,0,24,1249,0,100,-1,1,0,-265,64,1998,177,343,157,336,3,8,0,1,1,0.04068015303707279,0.16504680794144733,4.401310899011133,-29,-71,27,-11,-21,0,2.4,10,22,0,"",""
1616,22916739,-14,-30,1,-12,-20,27,-7,-14,0,0,0,0,43,-1,1024,-11,-21,0,24,1249,0,100,0,0,-1,-271,65,1999,197,339,157,319,3,8,0,1,1,0.04062991019707146,0.16487302992393937,4.401324167256456,-33,-64,28,-11,-21,0,2.4,11,21,-1,"",""
1624,22917798,-14,-28,1,-12,-21,27,-7,-5,0,0,0,0,43,-1,1024,-11,-21,0,24,1249,0,100,0,-2,-2,-276,68,2000,222,318,157,297,3,8,0,1,1,0.0405853300202797,0.1646784511901239,4.401358807144807,-33,-54,28,-11,-21,0,2.4,11,19,-2,"",""
1632,22918886,-13,-25,2,-12,-21,28,-5,4,0,0,0,0,43,-2,1024,-11,-21,-1,24,1249,0,100,-1,-4,-3,-278,70,2000,241,286,157,282,3,8,0,1,1,0.04052445101128976,0.16445322981209534,4.401415984962432,-30,-42,30,-11,-21,-1,2.4,10,17,-2,"",""
1640,22919939,-11,-24,4,-13,-21,28,0,12,0,0,0,0,42,-3,1024,-11,-22,-1,24,1249,0,100,-2,-5,-5,-279,69,2001,248,255,157,280,3,8,0,1,1,0.04043757285023715,0.16421780204483719,4.401508926180059,-24,-33,32,-11,-22,-1,2.4,9,17,-4,"",""
1648,22920993,-11,-25,4,-13,-22,28,3,14,0,0,0,0,41,-5,1024,-11,-22,-2,24,1249,0,100,-2,-5,-6,-279,65,2001,243,241,157,288,3,8,0,1,1,0.04033692280364192,0.16398501798162035,4.4016194195225715,-21,-33,32,-11,-22,-2,2.4,9,17,-4,"",""
1656,22922051,-11,-27,3,-13,-22,28,5,11,0,0,0,0,40,-8,1024,-11,-23,-3,24,1249,0,100,-2,-4,-6,-282,63,2002,227,250,157,298,3,8,0,1,1,0.040231195255411016,0.16377997317540388,4.401729049163381,-19,-38,31,-11,-23,-3,2.4,9,19,-3,"",""
1664,22923156,-12,-29,-1,-13,-22,28,4,5,0,0,0,0,39,-10,1023,-11,-24,-4,23,1249,0,100,-2,-4,-3,-289,62,2002,207,278,157,299,3,8,0,1,1,0.04013050912498997,0.1635904501854762,4.401784993395017,-21,-46,27,-11,-24,-4,2.3,9,20,1,"",""
1672,22924218,-14,-30,-8,-13,-22,28,0,0,0,0,0,0,38,-11,1023,-11,-24,-5,23,1249,0,100,0,-3,3,-298,63,2003,189,317,157,289,3,8,0,1,1,0.040090397770753926,0.16344343163725797,4.4017255252761585,-27,-52,20,-11,-24,-5,2.3,11,21,8,"",""
1680,22925278,-16,-31,-12,-13,-23,27,-4,-3,0,0,0,0,37,-13,1023,-11,-25,-5,23,1249,0,100,1,-3,6,-308,65,2004,184,348,157,276,3,8,0,1,1,0.04008364235643568,0.1633222111180373,4.401610613546311,-33,-57,15,-11,-25,-5,2.3,12,22,11,"",""
1688,22926402,-17,-32,-10,-13,-23,27,-8,-4,0,0,0,0,36,-14,1023,-11,-25,-6,23,1249,0,100,2,-3,4,-316,66,2005,192,358,157,272,3,8,0,1,1,0.04009502301362535,0.16322109585694808,4.401529117569777,-38,-59,17,-11,-25,-6,2.3,13,22,10,"",""
1696,22927466,-17,-31,-4,-14,-24,26,-9,-3,0,0,0,0,36,-15,1023,-11,-25,-6,23,1249,0,100,2,-4,-2,-319,66,2008,209,348,157,276,3,8,0,1,1,0.040085062444158256,0.163116745579155,4.401565317192104,-40,-58,22,-11,-25,-6,2.3,13,21,4,"",""
1704,22928521,-17,-30,1,-14,-24,26,-8,0,0,0,0,0,35,-17,1022,-11,-26,-7,22,1249,0,100,2,-5,-8,-318,64,2010,224,324,157,279,3,8,0,1,1,0.04005114360755094,0.16299627843593956,4.40171319706625,-39,-54,27,-11,-26,-7,2.2,13,21,-1,"",""
1712,22929585,-17,-29,4,-14,-24,26,-5,4,0,0,0,0,35,-19,1021,-11,-26,-8,20,1249,0,100,2,-6,-12,-317,61,2011,230,301,157,278,3,8,0,1,1,0.03999710410766911,0.1628573134773957,4.401937476386377,-36,-49,30,-11,-26,-8,2,13,20,-4,"",""
1720,22930659,-16,-29,3,-14,-25,27,-2,6,0,0,0,0,35,-22,1019,-11,-26,-9,18,1249,0,100,2,-6,-12,-317,59,2012,224,287,157,274,3,8,0,1,1,0.039938015853379104,0.16271788211439403,4.402163349082603,-32,-48,30,-11,-26,-9,1.8,13,20,-3,"",""
1728,22931717,-17,-30,0,-14,-25,27,0,6,0,0,0,0,35,-25,1018,-11,-26,-10,15,1238,0,100,2,-6,-10,-320,60,2012,208,290,157,267,3,8,0,1,1,0.03988826398163491,0.16258736531082127,4.402348713427832,-31,-49,27,-11,-26,-10,1.5,13,20,0,"",""
1736,22932775,-18,-29,-5,-15,-25,27,0,4,0,0,0,0,35,-27,1016,-11,-26,-11,13,1238,0,100,2,-6,-6,-325,62,2013,191,304,157,257,3,8,0,1,1,0.039856383723352755,0.16246750241742966,4.402459920677824,-33,-50,22,-11,-26,-11,1.3,13,20,5,"",""
1744,22933832,-18,-29,-9,-15,-26,26,-2,2,0,0,0,0,35,-29,1015,-11,-26,-12,12,1238,0,100,3,-6,-3,-332,64,2015,180,317,157,243,3,8,0,1,1,0.03985742084558754,0.16236382170975924,4.4025155908076385,-35,-53,17,-11,-26,-12,1.2,14,20,9,"",""
1752,22934915,-19,-28,-11,-15,-26,25,-3,2,0,0,0,0,35,-30,1014,-11,-26,-13,11,1238,0,100,3,-7,-2,-338,64,2016,177,322,157,231,3,8,0,1,1,0.039862588172002285,0.16225384540742135,4.402554398926298,-37,-52,14,-11,-26,-13,1.1,14,19,11,"",""
1760,22935978,-19,-27,-10,-15,-27,25,-3,3,0,0,0,0,35,-32,1013,-11,-26,-13,10,1238,0,100,3,-7,-4,-342,62,2018,181,317,157,225,3,8,0,1,1,0.03985536879042285,0.1621579150507876,4.4026293908914065,-37,-51,15,-11,-26,-13,1,14,19,9,"",""
1768,22937048,-19,-25,-8,-16,-27,24,-3,5,0,0,0,0,34,-33,1012,-11,-26,-14,8,1238,0,100,4,-9,-6,-346,59,2019,188,306,157,220,3,8,0,1,1,0.03985279530284676,0.16203598433325628,4.402743376395691,-38,-47,16,-11,-26,-14,0.8,15,17,8,"",""
1776,22938108,-18,-23,-5,-16,-27,23,-2,8,0,0,0,0,33,-34,1011,-11,-26,-14,7,1238,0,100,3,-10,-9,-352,57,2018,193,288,157,215,3,8,0,1,1,0.03981720198951415,0.1619159434017402,4.40291266141002,-36,-42,18,-11,-26,-14,0.7,14,16,5,"",""
1784,22939216,-18,-23,-4,-16,-28,23,0,11,0,0,0,0,32,-36,1009,-11,-27,-15,4,1238,0,100,3,-11,-11,-361,59,2017,193,273,157,210,3,8,0,1,1,0.03978230817969682,0.16179430944632028,4.4031305249070005,-34,-40,19,-11,-27,-15,0.4,14,16,4,"",""
1792,22940279,-18,-23,-4,-17,-28,23,0,12,0,0,0,0,31,-38,1007,-11,-28,-16,2,1238,0,100,3,-12,-12,-370,62,2016,188,267,157,206,3,8,0,1,1,0.03975187570581151,0.16168714708507073,4.403359781288783,-35,-39,19,-11,-28,-16,0.2,14,16,4,"",""
1800,22941368,-18,-24,-5,-17,-28,22,1,11,0,0,0,0,29,-39,1006,-11,-29,-17,0,1238,0,100,3,-12,-12,-378,66,2015,178,269,157,205,3,8,0,1,1,0.039732902597459964,0.16159588078507808,4.40359600821193,-34,-41,17,-11,-29,-17,0,14,17,5,"",""
1808,22942455,-18,-25,-6,-17,-29,22,1,9,0,0,0,0,28,-40,1004,-11,-29,-17,0,1238,0,100,3,-12,-11,-382,67,2015,167,279,157,207,3,8,0,1,1,0.03971985369430616,0.16151450746176815,4.40381291460943,-34,-45,16,-11,-29,-17,0,14,17,6,"",""
1816,22943518,-18,-26,-7,-17,-29,21,0,6,0,0,0,0,27,-41,1003,-11,-30,-18,0,1238,0,100,3,-12,-11,-382,66,2015,158,293,157,210,3,8,0,1,1,0.0397039273326409,0.1614378904338822,4.404024680388128,-35,-49,14,-11,-30,-18,0,14,18,7,"",""
1824,22944581,-19,-27,-8,-18,-30,21,0,3,0,0,0,0,26,-42,1002,-11,-30,-18,0,1238,0,100,3,-12,-10,-379,62,2015,157,307,157,213,3,8,0,1,1,0.03968080243547365,0.1613528791525173,4.4042165064202345,-37,-54,13,-11,-30,-18,0,14,18,8,"",""
1832,22945638,-19,-28,-8,0,0,0,-1,0,0,0,0,0,25,-43,1001,-11,-31,-18,0,1238,0,100,3,-12,-11,-377,58,2013,157,264,157,157,3,8,0,1,1,0.039644681906120575,0.1612655990990494,4.404424779337292,-20,-28,-8,-11,-31,-18,0,14,19,7,"",""
1840,22946728,-19,-28,-7,0,0,0,-1,0,0,0,0,0,24,-45,1001,-11,-31,-19,0,1238,0,100,3,-12,-12,-379,57,2011,157,265,157,159,3,8,0,1,1,0.03960417179805319,0.1611783347366723,4.404658779561536,-20,-28,-7,-11,-31,-19,0,14,19,7,"",""
1848,22947785,-19,-27,-7,0,0,0,0,0,0,0,0,0,24,-48,1000,-11,-31,-20,0,1238,0,100,4,-12,-14,-385,58,2009,157,263,157,158,3,8,0,1,1,0.03957872612834858,0.16111499900477363,4.404923231519548,-19,-27,-7,-11,-31,-20,0,15,19,6,"",""
1856,22948844,-18,-26,-6,0,0,0,0,2,0,0,0,0,24,-51,1000,-11,-31,-22,0,1238,0,100,3,-13,-16,-393,63,2009,157,254,157,157,3,8,0,1,1,0.03954207826253225,0.16105411929034766,4.405227880005153,-18,-24,-6,-11,-31,-22,0,14,18,6,"",""
1864,22949896,-17,-25,-7,0,0,0,0,4,0,0,0,0,24,-54,1000,-11,-31,-23,0,1238,0,100,2,-14,-17,-400,68,2008,157,243,157,157,3,8,0,1,1,0.03949732408189478,0.16099473265448752,4.40555133751284,-17,-21,-7,-11,-31,-23,0,13,17,6,"",""
1872,22950982,-16,-24,-8,0,0,0,2,6,0,0,0,0,24,-56,1000,-11,-31,-24,0,1238,0,100,2,-15,-17,-404,72,2008,157,234,157,157,3,8,0,1,1,0.039462525814694074,0.16091817966903885,4.40588730247112,-14,-18,-8,-11,-31,-24,0,13,16,7,"",""
1880,22952041,-15,-23,-10,0,0,0,4,7,0,0,0,0,24,-59,1000,-11,-31,-26,0,1255,60,100,1,-15,-17,-403,74,2006,157,228,157,157,3,8,0,1,1,0.03941529538233741,0.16084632732167647,4.406215497758778,-11,-16,-10,-11,-31,-26,0,12,16,9,"",""
1888,22953107,-14,-24,-11,0,0,0,6,6,0,0,0,0,24,-61,1000,-11,-31,-27,0,1255,60,100,0,-15,-16,-398,73,2005,157,229,157,157,3,8,0,1,1,0.039350203605698825,0.16075973980390232,4.406526759651788,-8,-18,-11,-11,-31,-27,0,11,16,11,"",""
1896,22954165,-14,-24,-13,0,0,0,6,4,0,0,0,0,24,-62,1000,-11,-31,-27,0,1255,60,100,0,-14,-15,-394,72,2004,157,238,157,157,3,8,0,1,1,0.03928655298079827,0.1606831418628371,4.406815977899203,-8,-20,-13,-11,-31,-27,0,11,17,12,"",""
1904,22955251,-14,-25,-15,0,0,0,6,0,0,0,0,0,24,-64,1000,-11,-30,-28,0,1255,60,99,0,-13,-14,-394,70,2002,157,250,157,159,3,8,0,1,1,0.039220413231466085,0.1606187443877064,4.407092433243068,-8,-25,-15,-11,-30,-28,0,11,17,14,"",""
1912,22956313,-15,-26,-15,0,0,0,3,-3,0,0,0,0,24,-65,1000,-11,-31,-29,0,1255,60,99,1,-13,-15,-398,69,2000,157,266,157,162,3,8,0,1,1,0.03916882431701155,0.160570580264242,4.407381297965871,-12,-29,-15,-11,-31,-29,0,12,18,14,"",""
1920,22957367,-16,-26,-14,0,0,0,0,-5,0,0,0,0,23,-67,1000,-11,-31,-29,0,1255,60,99,1,-12,-16,-402,71,1999,157,279,157,160,3,8,0,1,1,0.039120050666596344,0.16055287706964616,4.407686509149169,-16,-31,-14,-11,-31,-29,0,12,19,13,"",""
1928,22958419,-16,-27,-14,0,0,0,-2,-5,0,0,0,0,23,-68,1000,-11,-31,-30,0,1255,60,99,1,-12,-17,-405,75,1999,157,284,157,157,3,8,0,1,1,0.03907866360543641,0.16054294360895413,4.4080109214853245,-18,-32,-14,-11,-31,-30,0,12,19,13,"",""
1936,22959535,-15,-26,-13,0,0,0,-2,-4,0,0,0,0,23,-69,1000,-11,-31,-31,0,1255,60,99,1,-13,-18,-403,83,1999,157,278,157,157,3,8,0,1,1,0.03905211725147661,0.1604962183135384,4.4083778649956615,-17,-30,-13,-11,-31,-31,0,12,18,13,"",""
1944,22960585,-14,-25,-13,0,0,0,0,-1,0,0,0,0,23,-70,1000,-11,-31,-31,0,1255,60,99,-1,-14,-19,-398,91,1998,157,262,157,157,3,8,0,1,1,0.039008335236993076,0.16043383296130911,4.408744778961988,-14,-26,-13,-11,-31,-31,0,10,17,12,"",""
1952,22961647,-11,-24,-15,0,0,0,3,3,0,0,0,0,22,-71,1000,-11,-31,-32,0,1255,60,99,-2,-15,-18,-392,98,1997,157,242,157,157,3,8,0,1,1,0.038965615416135635,0.16033507402929686,4.409099780613971,-8,-21,-15,-11,-31,-32,0,9,16,14,"",""
1960,22962770,-9,-24,-17,0,0,0,8,6,0,0,0,0,22,-72,1000,-11,-31,-32,0,1255,60,99,-4,-15,-16,-386,102,1996,157,228,157,157,3,8,0,1,1,0.03889490819471505,0.16020551162887572,4.409436252661507,-1,-18,-17,-11,-31,-32,0,7,16,16,"",""
1968,22963841,-8,-24,-19,0,0,0,12,6,0,0,0,0,22,-72,1000,-11,-31,-32,0,1255,60,99,-5,-14,-15,-381,104,1995,157,222,166,162,3,8,0,1,1,0.038819925615419644,0.1600953074856636,4.409738393393769,4,-18,-19,-11,-31,-32,0,6,17,17,"",""
1976,22964892,-8,-26,-19,0,0,0,12,2,0,0,0,0,22,-72,1000,-11,-31,-32,0,1255,60,99,-5,-13,-15,-378,103,1995,157,230,157,174,3,8,0,1,1,0.03874540239332971,0.16000093054692888,4.410034034498443,4,-24,-19,-11,-31,-32,0,6,18,17,"",""
1984,22965943,-9,-28,-18,0,0,0,9,-2,0,0,0,0,22,-72,1000,-11,-31,-32,0,1255,60,99,-4,-12,-16,-375,100,1995,157,251,157,180,3,8,0,1,1,0.03867918358663088,0.15991843216537918,4.410346667771682,0,-30,-18,-11,-31,-32,0,7,19,16,"",""
1992,22967024,-11,-29,-20,0,0,0,3,-7,0,0,0,0,22,-72,1000,-11,-31,-32,0,1255,60,99,-3,-11,-14,-373,98,1996,157,279,157,174,3,8,0,1,1,0.038629652215422736,0.1598422147505858,4.41062851313668,-8,-36,-20,-11,-31,-32,0,8,20,18,"",""
2000,22968071,-12,-30,-23,0,0,0,-2,-9,0,0,0,0,22,-72,1000,-11,-31,-32,0,1255,60,99,-2,-11,-12,-370,99,1997,157,305,157,160,3,8,0,1,1,0.038609723258702947,0.15976326755058984,4.410864947766988,-14,-39,-23,-11,-31,-32,0,9,20,20,"",""
2008,22969121,-12,-30,-26,0,0,0,-6,-9,0,0,0,0,22,-72,1000,-11,-31,-32,0,1255,60,99,-2,-10,-9,-368,103,1998,157,318,157,157,3,8,0,1,1,0.038607995312042946,0.15969476095611498,4.411046768949591,-18,-39,-26,-11,-31,-32,0,9,21,23,"",""
2016,22970167,-11,-29,-27,0,0,0,-6,-6,0,0,0,0,22,-72,1000,-11,-31,-32,0,1255,60,99,-2,-11,-7,-365,108,1999,157,314,157,157,3,8,0,1,1,0.03862399231333026,0.15959987064683992,4.411193036381279,-17,-35,-27,-11,-31,-32,0,9,20,25,"",""
2024,22971276,-10,-28,-27,0,0,0,-2,-2,0,0,0,0,22,-72,1000,-11,-31,-32,0,1246,0,99,-4,-12,-7,-362,112,2000,157,294,157,157,3,8,0,1,1,0.03860705037566559,0.15946668684588616,4.411349403264088,-12,-30,-27,-11,-31,-32,0,7,19,25,"",""
2032,22972323,-7,-28,-25,0,0,0,2,0,0,0,0,0,22,-72,1000,-11,-31,-32,0,1246,0,99,-5,-12,-9,-358,113,2001,157,267,157,157,3,8,0,1,1,0.03857381454541221,0.15933815537807045,4.411534817580968,-5,-28,-25,-11,-31,-32,0,6,19,23,"",""
2040,22973379,-4,-29,-23,0,0,0,8,1,0,0,0,0,22,-73,1000,-11,-31,-32,0,1246,0,99,-7,-11,-11,-352,112,2002,157,248,157,173,3,8,0,1,1,0.03849454132953522,0.15921358247692663,4.411757989601448,4,-28,-23,-11,-31,-32,0,4,20,21,"",""
2048,22974430,-4,-31,-22,0,0,0,12,-1,0,0,0,0,22,-74,1000,-11,-30,-33,0,1246,0,99,-7,-9,-13,-344,110,2004,158,249,158,192,3,8,0,1,1,0.03840561390718656,0.15910892771120094,4.412015210496546,8,-32,-22,-11,-30,-33,0,4,21,20,"",""
2056,22975548,-7,-34,-25,0,0,0,10,-7,0,0,0,0,22,-76,1000,-11,-30,-34,0,1246,0,99,-5,-7,-11,-336,106,2005,158,278,158,196,3,8,0,1,1,0.03834199310655732,0.15901325033817823,4.412246012156473,3,-41,-25,-11,-30,-34,0,6,23,23,"",""
2064,22976605,-10,-36,-29,0,0,0,2,-13,0,0,0,0,22,-78,1000,-11,-30,-35,0,1246,0,99,-3,-5,-8,-330,103,2006,158,324,158,184,3,8,0,1,1,0.038324282170897686,0.15894533689943854,4.412406310204548,-8,-49,-29,-11,-30,-35,0,8,25,27,"",""
2072,22977663,-11,-38,-34,0,0,0,-6,-17,0,0,0,0,23,-79,1000,-11,-30,-36,0,1246,0,99,-2,-4,-5,-328,101,2008,158,363,158,166,3,8,0,1,1,0.03832883114441221,0.15888856481591934,4.412509352493512,-17,-55,-34,-11,-30,-36,0,9,26,31,"",""
2080,22978718,-8,-38,-37,0,0,0,-9,-17,0,0,0,0,23,-81,1000,-11,-30,-37,0,1246,0,99,-4,-4,-3,-330,100,2010,158,369,158,159,3,8,0,1,1,0.038300026468642605,0.15883467101597437,4.41257456926166,-17,-55,-37,-11,-30,-37,0,7,26,34,"",""
2088,22979845,-4,-36,-38,0,0,0,-2,-12,0,0,0,0,23,-82,1000,-11,-30,-37,0,1246,0,99,-7,-5,-2,-333,99,2012,158,338,158,163,3,8,0,1,1,0.03820732737272915,0.1587619340082748,4.412624410624209,-6,-48,-38,-11,-30,-37,0,4,25,35,"",""
